timestamp,run_id,weather,ax,ay,az,wx,wy,wz,ax_corr,ay_corr,gnss_x,gnss_y,gt_x,gt_y,gt_heading,gt_speed_mps,gt_accel_fwd_mps2,gt_accel_lat_mps2,gps_denied,pitch_deg,roll_deg
0.05,0,ClearNoon,-0.066757,0.017356,9.80212,0.005568,-0.001012,0.001235,-0.066738,0.017366,1.1839,-0.323,-0.0041,0.4032,-1.581095,8.0568,-0.3407,0.0001,0,0.0,-0.0
0.1,0,ClearNoon,0.060624,-0.0104,9.796041,-0.008533,-0.004894,0.003368,0.060667,-0.01039,0.9304,2.1757,-0.0082,0.8065,-1.581095,8.0738,0.1646,-0.0003,0,0.0,-0.0
0.15,0,ClearNoon,0.008275,0.022199,9.791552,-0.001727,0.005037,-0.005854,0.008318,0.02221,0.4759,1.7543,-0.0123,1.2098,-1.581095,8.0652,0.7355,-0.0006,0,0.0,-0.0
0.2,0,ClearNoon,0.702733,0.010109,9.809424,-0.001897,0.002077,0.00151,0.703116,0.01012,1.3288,3.3796,-0.0164,1.6149,-1.581095,8.1347,1.4063,-0.0005,0,0.002,-0.0
0.25,0,ClearNoon,1.700806,0.059559,9.813147,-0.001572,-0.001368,-0.008856,1.701916,0.059569,0.7118,1.9732,-0.0207,2.0242,-1.581095,8.2276,2.1547,0.0001,0,0.006,-0.0
0.3,0,ClearNoon,2.878598,-0.00443,9.797203,-0.002754,-0.006079,0.001898,2.88084,-0.004419,1.4166,5.4877,-0.025,2.4407,-1.581095,8.402,2.912,0.0013,0,0.013,-0.0
0.35,0,ClearNoon,3.504368,0.008066,9.777398,0.003137,-0.002576,0.000497,3.50786,0.008076,-0.5398,2.4343,-0.0293,2.8659,-1.581095,8.576,3.6029,0.0034,0,0.02,-0.0
0.4,0,ClearNoon,4.175014,-0.032834,9.815907,0.009613,0.005484,0.000737,4.179832,-0.032823,0.0947,4.6483,-0.0338,3.3017,-1.581094,8.8104,4.1777,0.0061,0,0.028,-0.0
0.45,0,ClearNoon,4.485434,-0.023427,9.833457,-0.006108,-0.005455,-0.000441,4.49145,-0.023416,1.5176,3.916,-0.0384,3.7487,-1.581094,9.0278,4.6203,0.0088,0,0.035,-0.0
0.5,0,ClearNoon,4.898705,-0.019124,9.821633,0.000125,-0.001325,0.008294,4.905841,-0.019056,1.7134,4.2574,-0.0432,4.208,-1.58115,9.2915,4.9416,0.0099,0,0.042,-0.0
0.55,0,ClearNoon,4.981874,-0.026195,9.80801,0.003201,0.005008,0.001478,4.989931,-0.026117,0.9489,5.8893,-0.0482,4.6797,-1.581226,9.5304,5.1657,0.0091,0,0.047,-0.0
0.6,0,ClearNoon,5.237963,0.022208,9.783796,0.00719,-0.0014,0.00476,5.246838,0.02225,1.1941,6.4059,-0.0533,5.1646,-1.581258,9.8073,5.3179,0.0074,0,0.052,-0.0
0.65,0,ClearNoon,5.266919,0.008794,9.822776,0.002203,0.001859,0.010924,5.276437,0.00882,1.9516,5.9336,-0.0585,5.6625,-1.581265,10.059,5.4147,0.0059,0,0.056,-0.0
0.7,0,ClearNoon,5.490133,-0.016837,9.827296,-0.003554,0.002385,0.000417,5.500236,-0.016754,1.294,6.5243,-0.0639,6.174,-1.581328,10.3461,5.4603,0.0042,0,0.059,-0.0
0.75,0,ClearNoon,5.520786,0.043801,9.816104,-0.00177,0.000793,0.001006,5.531383,0.043853,-0.209,8.2267,-0.0695,6.6994,-1.581367,10.6151,5.4501,0.002,0,0.062,-0.0
0.8,0,ClearNoon,5.581475,-0.00527,9.795018,0.001131,-0.002864,0.002767,5.592455,-0.005239,0.501,9.1575,-0.0752,7.2386,-1.581373,10.8957,5.3836,0.0001,0,0.064,-0.0
0.85,0,ClearNoon,5.277215,0.047775,9.827979,0.002694,-0.003897,-0.002087,5.288382,0.047801,-0.0035,8.3313,-0.0811,7.7911,-1.581376,11.1526,5.2726,-0.0008,0,0.065,-0.0
0.9,0,ClearNoon,5.144249,0.005354,9.787752,-0.004811,0.002334,0.005345,5.15548,0.005375,0.5123,8.0875,-0.087,8.3565,-1.581377,11.4106,5.1384,-0.0009,0,0.066,-0.0
0.95,0,ClearNoon,4.978152,0.027283,9.793477,0.001362,0.003282,0.001105,4.989339,0.027304,0.402,12.4301,-0.0931,8.9343,-1.581377,11.656,5.0023,-0.0006,0,0.065,-0.0
1.0,0,ClearNoon,4.894155,-0.007248,9.805217,-0.001758,-0.000933,-0.003946,4.905246,-0.007227,1.1268,10.5784,-0.0994,9.5244,-1.581376,11.8992,4.8798,-0.0004,0,0.065,-0.0
1.05,0,ClearNoon,4.777806,0.039499,9.809196,-0.0031,-0.000327,-0.008447,4.788769,0.039515,0.9091,10.1201,-0.1057,10.1265,-1.581376,12.1365,4.7779,-0.0002,0,0.064,-0.0
1.1,0,ClearNoon,4.739205,-0.035457,9.817056,0.005932,0.005592,0.007471,4.750029,-0.035441,1.0866,11.2909,-0.1122,10.7403,-1.581375,12.3713,4.6976,-0.0001,0,0.063,-0.0
1.15,0,ClearNoon,4.640979,-0.003846,9.844772,-0.001709,0.004631,-0.003976,4.651664,-0.00383,2.1753,13.4098,-0.1189,11.3658,-1.581374,12.6031,4.6356,-0.0,0,0.062,-0.0
1.2,0,ClearNoon,4.623772,-0.017118,9.804384,0.005857,0.010813,0.004035,4.634326,-0.017108,1.3878,13.4002,-0.1256,12.0028,-1.581373,12.8329,4.5875,-0.0,0,0.062,-0.0
1.25,0,ClearNoon,4.528138,0.008375,9.785158,0.008212,0.00331,-0.000372,4.538571,0.008385,0.8603,14.2258,-0.1324,12.6513,-1.581372,13.0608,4.5484,0.0001,0,0.061,-0.0
1.3,0,ClearNoon,4.553473,-0.028358,9.794766,0.009139,0.000724,-0.001521,4.563793,-0.028347,0.1892,15.2103,-0.1394,13.3111,-1.581371,13.287,4.515,0.0002,0,0.06,-0.0
1.35,0,ClearNoon,4.530434,-0.002384,9.808447,0.002167,0.001058,-0.003317,4.540657,-0.002373,2.0496,15.9402,-0.1465,13.9821,-1.58137,13.5118,4.4852,0.0002,0,0.06,-0.0
1.4,0,ClearNoon,4.488876,0.012455,9.793415,0.005806,-0.000524,0.000767,4.499009,0.012466,1.3706,16.7166,-0.1537,14.6643,-1.58137,13.7352,4.4588,0.0002,0,0.059,-0.0
1.45,0,ClearNoon,4.46066,-0.008364,9.795771,-0.003795,0.003271,-0.005057,4.470709,-0.008354,-0.692,15.3001,-0.1611,15.3577,-1.581369,13.9573,4.4373,-0.0002,0,0.059,-0.0
1.5,0,ClearNoon,4.408083,-0.008233,9.794914,-0.000741,-0.004734,0.006733,4.418058,-0.008223,-0.0189,16.7515,-0.1685,16.0622,-1.581368,14.1781,4.4235,-0.001,0,0.058,-0.0
1.55,0,ClearNoon,4.418668,0.013447,9.805053,-0.004339,0.002854,0.002408,4.428573,0.013457,1.7952,19.1044,-0.1761,16.7776,-1.581367,14.3977,4.4204,-0.0025,0,0.058,-0.0
1.6,0,ClearNoon,4.384831,-0.028435,9.770241,0.006423,-0.004752,7.7e-05,4.39467,-0.028424,-0.6275,18.2234,-0.1837,17.504,-1.581367,14.6161,4.4288,-0.0047,0,0.057,-0.0
1.65,0,ClearNoon,4.434382,0.035789,9.772846,0.006894,0.004204,0.00357,4.444159,0.0358,0.0826,18.5546,-0.1916,18.2413,-1.581365,14.8334,4.4437,-0.0071,0,0.057,-0.0
1.7,0,ClearNoon,4.342333,-0.058119,9.791069,-0.011684,0.000676,-0.00437,4.352051,-0.058158,-0.3527,18.9559,-0.1994,18.9894,-1.581317,15.0494,4.4487,-0.0088,0,0.057,0.0
1.75,0,ClearNoon,4.293353,0.012238,9.838053,-0.005031,-0.006527,0.009382,4.303015,0.012216,2.0078,19.2956,-0.2074,19.7483,-1.581279,15.2644,4.4108,-0.0095,0,0.056,0.0
1.8,0,ClearNoon,4.311392,-0.018344,9.815463,0.000221,-0.006202,-0.001114,4.320999,-0.018356,1.2888,20.4491,-0.2154,20.5179,-1.581265,15.4782,4.2786,-0.0094,0,0.056,0.0
1.85,0,ClearNoon,4.262673,0.040669,9.807494,-0.002805,-0.000863,-0.005511,4.272227,0.040611,1.2863,21.2227,-0.2236,21.2982,-1.58121,15.6908,3.9891,-0.0083,0,0.056,0.0
1.9,0,ClearNoon,4.117054,-0.027119,9.803061,-0.001682,0.009684,0.002261,4.1265,-0.02716,0.9041,23.3357,-0.2318,22.0888,-1.581167,15.8898,3.4898,-0.0058,0,0.055,0.0
1.95,0,ClearNoon,3.539765,0.018868,9.804212,-0.008361,0.008197,-0.009218,3.548837,0.018839,0.6973,25.3402,-0.2402,22.8882,-1.58115,16.0478,2.7711,-0.0024,0,0.053,0.0
2.0,0,ClearNoon,2.496585,-0.017409,9.801856,0.002892,-0.00056,0.002051,2.504866,-0.017435,1.008,24.9455,-0.2486,23.6937,-1.581141,16.1483,1.8862,0.0011,0,0.048,0.0
2.05,0,ClearNoon,1.260141,-0.020303,9.819274,0.005953,0.00097,0.004439,1.267207,-0.020326,0.5056,23.6998,-0.257,24.5025,-1.581136,16.188,0.9433,0.0043,0,0.041,0.0
2.1,0,ClearNoon,0.122927,-0.019856,9.810455,0.015461,0.008642,0.005801,0.128476,-0.019824,-0.4194,27.0531,-0.2654,25.3116,-1.581181,16.1759,0.0712,0.0067,0,0.032,-0.0
2.15,0,ClearNoon,-0.718323,0.020972,9.794202,0.009868,0.004544,-0.008036,-0.7144,0.020988,1.0515,26.6724,-0.2737,26.119,-1.581219,16.1278,-0.6191,0.008,0,0.023,-0.0
2.2,0,ClearNoon,-1.219067,0.026411,9.809729,0.012012,0.013762,-0.006428,-1.216679,0.026422,1.7089,27.0621,-0.2821,26.9233,-1.581232,16.0609,-1.061,0.0084,0,0.014,-0.0
2.25,0,ClearNoon,-1.384046,0.01304,9.844047,0.000753,0.011306,0.003446,-1.382953,0.013102,0.4284,28.7575,-0.2905,27.7241,-1.581287,15.9903,-1.241,0.0078,0,0.006,-0.0
2.3,0,ClearNoon,-1.350121,0.041813,9.810782,0.010927,0.004586,0.003478,-1.349996,0.04186,1.195,31.0508,-0.2989,28.5216,-1.581329,15.9277,-1.1909,0.0059,0,0.001,-0.0
2.35,0,ClearNoon,-1.066454,0.014886,9.814452,-0.005003,0.000564,0.007383,-1.066945,0.014923,1.6125,29.3736,-0.3073,29.3164,-1.581344,15.8806,-0.9728,0.0034,0,-0.003,-0.0
2.4,0,ClearNoon,-0.744431,0.022927,9.806512,-0.00256,-0.005677,-0.00182,-0.74521,0.022964,-1.3456,30.9239,-0.3157,30.1095,-1.581352,15.8522,-0.6609,0.0007,0,-0.005,-0.0
2.45,0,ClearNoon,-0.338469,0.001646,9.793252,0.005321,0.004904,0.010964,-0.339269,0.001682,2.794,32.3502,-0.3241,30.9016,-1.581357,15.8421,-0.3266,-0.0018,0,-0.005,-0.0
2.5,0,ClearNoon,0.017839,-0.023114,9.81444,-0.008412,-0.001126,-0.012222,0.017206,-0.023077,2.6824,33.0301,-0.3325,31.6938,-1.581359,15.8472,-0.0273,-0.0039,0,-0.004,-0.0
2.55,0,ClearNoon,0.253291,-0.049917,9.826872,0.003625,-0.003847,-0.001657,0.252925,-0.049934,0.0708,34.694,-0.3408,32.4866,-1.581312,15.8626,0.1993,-0.0045,0,-0.002,0.0
2.6,0,ClearNoon,0.40261,0.026401,9.80649,0.002924,0.00557,-0.003549,0.402537,0.026398,1.8032,35.926,-0.3491,33.2803,-1.581274,15.8833,0.3364,-0.0037,0,-0.0,0.0
2.65,0,ClearNoon,0.459135,0.024065,9.837542,-0.003982,0.00169,-0.002592,0.45932,0.02407,-0.7177,35.083,-0.3575,34.0751,-1.581261,15.9046,0.3856,-0.0024,0,0.001,-0.0
2.7,0,ClearNoon,0.370079,-0.009038,9.798715,-0.004126,0.004942,0.003806,0.370451,-0.009033,-0.4262,35.3017,-0.3659,34.8708,-1.581255,15.9231,0.3619,-0.0014,0,0.002,-0.0
2.75,0,ClearNoon,0.319397,-0.003515,9.823451,-0.009599,-0.000773,0.000277,0.319873,-0.003515,1.061,35.913,-0.3743,35.6674,-1.58125,15.9367,0.2878,-0.0008,0,0.003,0.0
2.8,0,ClearNoon,0.193028,-0.001058,9.832285,-0.002954,0.000631,0.008748,0.193526,-0.001058,-0.6771,39.1034,-0.3827,36.4644,-1.581249,15.9443,0.188,-0.0006,0,0.003,0.0
2.85,0,ClearNoon,0.07658,-0.03629,9.796459,-0.000343,0.000306,-0.001167,0.077035,-0.03629,0.8535,37.7075,-0.3911,37.2617,-1.581248,15.9465,0.0848,-0.0008,0,0.003,-0.0
2.9,0,ClearNoon,-0.000158,0.026195,9.806155,-0.001702,0.00912,0.00127,0.00021,0.026195,0.6907,39.4199,-0.3995,38.0589,-1.581247,15.9443,-0.0047,-0.0017,0,0.002,0.0
2.95,0,ClearNoon,-0.110374,-0.03135,9.79258,-0.000448,0.00145,0.006874,-0.110111,-0.031345,1.1535,39.356,-0.4079,38.8559,-1.581247,15.9392,-0.0701,-0.0034,0,0.002,-0.0
3.0,0,ClearNoon,-0.097032,0.035639,9.802279,0.000934,-0.003639,0.003661,-0.096873,0.035644,2.4408,42.476,-0.4163,39.6526,-1.581247,15.9328,-0.1074,-0.006,0,0.001,-0.0
3.05,0,ClearNoon,-0.100552,-0.041714,9.797982,-0.001556,-0.001221,-0.009256,-0.100481,-0.041709,0.3402,41.9201,-0.4247,40.449,-1.581247,15.9263,-0.1181,-0.0089,0,0.0,-0.0
3.1,0,ClearNoon,-0.12936,-0.082334,9.798885,-0.002315,0.00389,-0.001755,-0.129349,-0.082377,-1.1196,42.3059,-0.4329,41.2451,-1.581199,15.9209,-0.1075,-0.011,0,0.0,0.0
3.15,0,ClearNoon,-0.063834,-0.012716,9.808706,0.002811,0.000517,0.004948,-0.063855,-0.012741,1.8659,43.0165,-0.4411,42.041,-1.58116,15.9171,-0.0829,-0.0115,0,-0.0,0.0
3.2,0,ClearNoon,-0.009624,0.050921,9.846107,-0.00263,0.000335,0.006095,-0.009655,0.050858,1.2349,45.2386,-0.4494,42.8367,-1.581099,15.9151,-0.0518,-0.0102,0,-0.0,0.0
3.25,0,ClearNoon,-0.008415,-0.010298,9.802161,0.005521,-0.002244,-0.000552,-0.008436,-0.010342,0.9337,43.6475,-0.4576,43.6324,-1.581054,15.9147,-0.0208,-0.0075,0,-0.0,0.0
3.3,0,ClearNoon,0.052166,0.026942,9.837524,-0.003792,-0.001543,-0.00565,0.052172,0.026909,-0.054,45.9218,-0.4658,44.4282,-1.581037,15.9155,0.0054,-0.004,0,0.0,0.0
3.35,0,ClearNoon,0.018309,0.022113,9.802002,0.014237,-0.009519,-0.006595,0.018345,0.022084,0.6815,46.7977,-0.474,45.2239,-1.581028,15.9172,0.0238,-0.0003,0,0.0,0.0
3.4,0,ClearNoon,0.03891,0.000946,9.811669,0.000656,1.7e-05,0.003172,0.038976,0.00092,0.9117,46.7253,-0.4822,46.0198,-1.581024,15.9192,0.0337,0.0038,0,0.0,0.0
3.45,0,ClearNoon,0.039412,-0.014528,9.81557,0.008804,0.005693,0.002221,0.039501,-0.014549,0.71,46.926,-0.4904,46.8158,-1.581021,15.9211,0.0357,0.0079,0,0.001,0.0
3.5,0,ClearNoon,0.046731,-0.019851,9.786533,0.002437,0.006082,0.006002,0.046836,-0.019819,1.0,48.8941,-0.4986,47.6119,-1.581069,15.9226,0.0316,0.0108,0,0.001,-0.0
3.55,0,ClearNoon,0.005013,0.009767,9.776896,-0.000933,-0.00644,0.009591,0.005127,0.009835,0.4337,49.0403,-0.5068,48.408,-1.581155,15.9237,0.0236,0.0115,0,0.001,-0.0
3.6,0,ClearNoon,-7.6e-05,-0.033231,9.786881,-0.001673,0.002964,0.005446,3.8e-05,-0.033184,-0.1532,47.824,-0.515,49.2041,-1.581206,15.9242,0.014,0.011,0,0.001,-0.0
3.65,0,ClearNoon,0.036929,0.043244,9.8185,0.005753,-0.007953,0.002696,0.037039,0.04328,-1.5761,50.2457,-0.5232,50.0003,-1.581225,15.9243,0.0048,0.0106,0,0.001,-0.0
3.7,0,ClearNoon,-0.016421,0.002687,9.808949,-0.002189,0.0023,0.004214,-0.01632,0.002724,-0.0118,51.6495,-0.5314,50.7965,-1.581236,15.924,-0.0028,0.0105,0,0.001,-0.0
3.75,0,ClearNoon,0.019207,0.071221,9.817919,-0.002246,0.004493,-0.007671,0.0193,0.07131,0.7311,51.7646,-0.5398,51.5926,-1.58129,15.9234,-0.0079,0.009,0,0.001,-0.001
3.8,0,ClearNoon,-0.016524,0.044968,9.822276,-0.001801,-0.00336,0.000129,-0.016441,0.045036,0.5753,54.567,-0.5482,52.3887,-1.581331,15.9228,-0.0105,0.0051,0,0.0,-0.0
3.85,0,ClearNoon,-0.015661,-0.029459,9.813139,0.004755,-0.008014,-0.004394,-0.015585,-0.029402,-0.1466,54.2927,-0.5565,53.1848,-1.581346,15.9223,-0.0107,-0.0008,0,0.0,-0.0
3.9,0,ClearNoon,-0.032424,-0.007352,9.823617,0.000238,0.005965,-0.000412,-0.032352,-0.0073,-0.0762,54.7979,-0.5649,53.9809,-1.581353,15.9218,-0.0092,-0.008,0,0.0,-0.0
3.95,0,ClearNoon,0.010016,-0.02999,9.794079,0.004021,0.000442,0.008984,0.010086,-0.029992,1.6584,54.3021,-0.5733,54.7769,-1.581309,15.9215,-0.0067,-0.0155,0,0.0,0.0
4.0,0,ClearNoon,-0.006697,-0.048053,9.802067,0.002269,0.003528,-0.006804,-0.006626,-0.048093,-1.3478,56.2234,-0.5815,55.573,-1.581224,15.9214,-0.0038,-0.0229,0,0.0,0.0
4.05,0,ClearNoon,-0.023818,-0.023491,9.795813,0.007111,0.012924,-0.002208,-0.023746,-0.023507,1.6233,56.3421,-0.5898,56.369,-1.581174,15.9214,-0.0011,-0.0299,0,0.0,0.0
4.1,0,ClearNoon,0.022759,0.009817,9.814384,0.001028,0.000846,-0.00249,0.022833,0.00971,-0.1715,57.0406,-0.5979,57.165,-1.581058,15.9215,0.0011,-0.0357,0,0.0,0.001
4.15,0,ClearNoon,-0.007222,-0.005681,9.788559,0.009491,0.0022,0.001811,-0.007145,-0.005855,-0.1502,58.4595,-0.606,57.9611,-1.580874,15.9217,0.0024,-0.0389,0,0.0,0.001
4.2,0,ClearNoon,-0.007222,-0.067312,9.826859,-0.002136,0.005111,-0.00588,-0.007142,-0.067502,0.6749,58.5666,-0.6139,58.7571,-1.580697,15.9219,0.003,-0.0401,0,0.0,0.001
4.25,0,ClearNoon,-0.015781,0.005492,9.798435,0.004817,-0.001623,0.000487,-0.015699,0.005281,0.4165,60.4232,-0.6218,59.5532,-1.580532,15.922,0.0029,-0.0423,0,0.0,0.001
4.3,0,ClearNoon,0.000981,-0.002233,9.799494,-0.004301,-0.003599,0.002707,0.001064,-0.002399,-0.2671,59.9965,-0.6296,60.3492,-1.580438,15.9222,0.0026,-0.0481,0,0.0,0.001
4.35,0,ClearNoon,0.009507,-0.039122,9.82047,0.001117,-0.00929,0.001373,0.00959,-0.039264,0.918,61.1586,-0.6375,61.1453,-1.580397,15.9222,0.0022,-0.0573,0,0.0,0.001
4.4,0,ClearNoon,0.014152,-0.149835,9.793829,0.000509,0.010111,0.006361,0.014235,-0.150143,1.4956,63.1955,-0.645,61.9414,-1.580201,15.9223,0.0022,-0.0648,0,0.0,0.002
4.45,0,ClearNoon,0.003739,-0.080574,9.816057,0.010246,0.00482,-0.005721,0.003822,-0.080971,1.446,63.8443,-0.6523,62.7375,-1.579891,15.9223,0.0027,-0.065,0,0.0,0.002
4.5,0,ClearNoon,-0.047923,-0.077478,9.80108,-0.002803,0.005123,4e-05,-0.047841,-0.077896,-0.2201,64.3771,-0.6594,63.5336,-1.579583,15.9222,0.0036,-0.0576,0,0.0,0.002
4.55,0,ClearNoon,-0.004097,0.019429,9.839825,0.003857,0.003756,0.001376,-0.004016,0.019113,-1.3177,65.8504,-0.6664,64.3296,-1.579412,15.9222,0.0042,-0.0476,0,0.0,0.002
4.6,0,ClearNoon,0.021468,-0.094314,9.853498,0.004359,0.003136,-0.000424,0.021549,-0.094629,0.6014,66.1505,-0.6733,65.1257,-1.579292,15.9221,0.0032,-0.039,0,0.0,0.002
4.65,0,ClearNoon,0.002521,-0.033028,9.80232,-0.003611,-0.00281,0.002562,0.0026,-0.033348,0.4486,66.6464,-0.6801,65.9218,-1.579167,15.9221,-0.0016,-0.0329,0,0.0,0.002
4.7,0,ClearNoon,0.000171,-0.042633,9.818675,-0.006826,0.003296,0.000673,0.000251,-0.042899,0.7254,68.2652,-0.6868,66.7178,-1.579095,15.922,-0.0126,-0.0293,0,0.0,0.002
4.75,0,ClearNoon,-0.002903,-0.046512,9.830382,0.001011,0.00606,-0.002347,-0.002824,-0.046738,-0.1009,67.5787,-0.6935,67.5139,-1.579065,15.922,-0.0318,-0.0282,0,0.0,0.001
4.8,0,ClearNoon,-0.003456,0.000176,9.823989,0.002245,0.00664,-0.007154,-0.003377,-8.8e-05,-1.4784,69.1086,-0.7001,68.31,-1.578979,15.922,-0.0582,-0.0288,0,0.0,0.002
4.85,0,ClearNoon,-0.013011,-0.033521,9.765172,-0.0046,-0.00886,0.001064,-0.012932,-0.033732,1.5539,70.5929,-0.7065,69.1061,-1.578917,15.922,-0.0844,-0.0301,0,0.0,0.001
4.9,0,ClearNoon,-0.000954,-0.041162,9.810776,0.001033,0.008414,-0.008048,-0.000875,-0.04138,-1.0184,70.2895,-0.713,69.9021,-1.578846,15.922,-0.0933,-0.0314,0,0.0,0.001
4.95,0,ClearNoon,-0.013935,0.030971,9.810014,0.014907,0.006338,-0.001091,-0.013855,0.030748,-0.5025,71.106,-0.7194,70.6982,-1.578747,15.922,-0.054,-0.0318,0,0.0,0.001
5.0,0,ClearNoon,0.015904,-0.069328,9.808982,-0.002063,0.004444,0.003764,0.015984,-0.069549,1.3479,72.0008,-0.7256,71.4943,-1.57864,15.9221,0.0765,-0.0303,0,0.0,0.001
5.05,0,ClearNoon,0.031724,-0.001623,9.787522,-0.008803,0.006729,-0.012605,0.031805,-0.001843,1.4684,73.2625,-0.7319,72.2903,-1.57853,15.9221,0.3426,-0.0266,0,0.0,0.001
5.1,0,ClearNoon,0.07232,-0.069772,9.847497,0.002748,0.0029,-0.006489,0.072455,-0.069993,0.9828,72.667,-0.738,73.0866,-1.578418,15.9348,0.7663,-0.0213,0,0.001,0.001
5.15,0,ClearNoon,0.875472,0.016825,9.80073,-0.002026,-0.004126,0.003604,0.876007,0.016652,0.9798,76.6837,-0.744,73.8851,-1.578353,16.0003,1.321,-0.0157,0,0.003,0.001
5.2,0,ClearNoon,1.854849,-0.011162,9.832384,0.00136,0.004544,-0.000906,1.856164,-0.011305,0.1485,75.6541,-0.7502,74.6883,-1.578324,16.1098,1.9321,-0.0112,0,0.008,0.001
5.25,0,ClearNoon,2.594286,-0.052452,9.797589,0.007368,-0.003227,0.006536,2.596582,-0.052575,1.589,77.0625,-0.7562,75.4979,-1.578309,16.2491,2.5121,-0.0081,0,0.013,0.001
5.3,0,ClearNoon,3.050019,0.055813,9.807592,-0.000608,0.000263,-0.001338,3.053338,0.055708,1.3306,77.0299,-0.7625,76.3151,-1.5783,16.4084,2.9991,-0.0062,0,0.019,0.001
5.35,0,ClearNoon,3.37246,-0.065496,9.824295,-0.000828,0.005787,0.002394,3.376745,-0.065584,-1.3361,80.1648,-0.7687,77.1407,-1.578295,16.5815,3.37,-0.0049,0,0.025,0.001
5.4,0,ClearNoon,3.577967,-0.056519,9.779657,0.006531,0.008513,0.008332,3.583112,-0.056592,0.5239,78.7842,-0.775,77.9752,-1.578292,16.7637,3.6335,-0.0039,0,0.03,0.0
5.45,0,ClearNoon,3.700773,-0.000619,9.801936,-0.000288,0.004558,0.006185,3.706659,-0.000678,0.1809,78.9578,-0.7813,78.819,-1.578289,16.9522,3.8161,-0.003,0,0.034,0.0
5.5,0,ClearNoon,3.811996,-0.008057,9.81744,0.002172,-0.001931,0.002519,3.818496,-0.008104,0.5129,79.8692,-0.7877,79.6724,-1.578288,17.1446,3.9476,-0.0021,0,0.038,0.0
5.55,0,ClearNoon,3.902045,-0.037912,9.79162,-0.000115,-0.008764,-0.002513,3.909049,-0.037948,0.1224,80.4701,-0.7942,80.5354,-1.578287,17.3397,4.0503,-0.0011,0,0.041,0.0
5.6,0,ClearNoon,3.917683,0.004086,9.825173,5.7e-05,0.000718,-0.001467,3.925091,0.004059,1.1868,82.6877,-0.8008,81.4083,-1.578286,17.5362,4.1291,0.0,0,0.043,0.0
5.65,0,ClearNoon,3.927441,0.015533,9.833993,-0.001402,-0.007257,0.001778,3.935165,0.015513,0.6009,82.8277,-0.8074,82.291,-1.578285,17.7335,4.1626,0.0012,0,0.045,0.0
5.7,0,ClearNoon,3.984451,0.00735,9.784562,0.006508,0.001929,-0.008194,3.992421,0.007337,-0.2164,84.1025,-0.814,83.1836,-1.578284,17.9311,4.0972,0.0023,0,0.047,0.0
5.75,0,ClearNoon,3.962167,0.035602,9.786636,-0.002648,-0.007131,0.003199,3.970323,0.035617,-0.8574,85.0445,-0.8209,84.0861,-1.578307,18.1285,3.8487,0.0027,0,0.048,-0.0
5.8,0,ClearNoon,3.886763,-0.053465,9.818084,-0.010093,-0.000221,0.010529,3.895011,-0.053454,1.4793,84.9505,-0.8277,84.9982,-1.578327,18.3158,3.3208,0.0026,0,0.048,-0.0
5.85,0,ClearNoon,3.386698,0.013182,9.828939,-0.003541,0.001935,0.001273,3.394783,0.013192,-1.3749,85.6725,-0.8346,85.9187,-1.578335,18.4676,2.4403,0.0025,0,0.047,-0.0
5.9,0,ClearNoon,2.290838,-0.014345,9.819712,0.005243,0.003964,0.000614,2.298269,-0.014335,1.1178,86.005,-0.8416,86.845,-1.578339,18.5539,1.1979,0.0027,0,0.043,-0.0
5.95,0,ClearNoon,0.722471,0.021405,9.836964,-0.000804,0.010716,-0.00108,0.728641,0.02142,0.9738,90.8251,-0.8487,87.7731,-1.578342,18.5572,-0.328,0.0034,0,0.036,-0.0
6.0,0,ClearNoon,-1.212885,0.030101,9.779725,0.009509,0.012481,0.003068,-1.208661,0.030117,-1.5121,86.9954,-0.8557,88.6982,-1.578344,18.4536,-1.9758,0.004,0,0.025,-0.0
6.05,0,ClearNoon,-3.188104,-0.005851,9.840452,-0.001476,0.006094,0.004702,-3.186382,-0.005809,0.9115,91.1024,-0.8627,89.6153,-1.578369,18.2651,-3.5344,0.0042,0,0.01,-0.0
6.1,0,ClearNoon,-4.579931,-0.078477,9.841403,0.001094,0.002794,0.008217,-4.580893,-0.078446,-0.3982,90.2533,-0.8695,90.5211,-1.57839,18.0094,-4.7897,0.0036,0,-0.006,-0.0
6.15,0,ClearNoon,-5.799798,0.04191,9.809213,0.000402,0.005708,0.003905,-5.803471,0.041942,-0.4393,91.5282,-0.8763,91.4123,-1.5784,17.7,-5.5649,0.0028,0,-0.021,-0.0
6.2,0,ClearNoon,-6.292497,0.009178,9.821983,0.002655,0.007852,0.000345,-6.29852,0.009204,-1.0729,94.8398,-0.8829,92.2877,-1.578406,17.3886,-5.7494,0.0022,0,-0.035,-0.0
6.25,0,ClearNoon,-6.073154,0.027561,9.833376,-0.002375,0.00582,-0.005735,-6.080908,0.027588,1.153,93.3797,-0.8894,93.148,-1.578411,17.092,-5.3196,0.0018,0,-0.045,-0.0
6.3,0,ClearNoon,-5.435455,0.036306,9.776704,-0.003592,0.004462,0.000714,-5.444201,0.036332,0.8253,95.183,-0.8959,93.9948,-1.578414,16.8448,-4.3492,0.0017,0,-0.051,-0.0
6.35,0,ClearNoon,-3.875478,0.047894,9.807136,0.002906,0.004332,-0.000979,-3.88424,0.04792,0.9036,96.1047,-0.9023,94.832,-1.578417,16.6908,-3.0082,0.0019,0,-0.051,-0.0
6.4,0,ClearNoon,-1.871351,-0.095261,9.817928,-0.008093,-0.00477,0.003569,-1.879136,-0.095235,0.4916,96.8851,-0.9086,95.6645,-1.578418,16.6319,-1.5383,0.0026,0,-0.045,-0.0
6.45,0,ClearNoon,-0.407299,0.024734,9.781058,-0.004108,-0.005536,0.002166,-0.413548,0.02476,0.368,96.9323,-0.9148,96.496,-1.578418,16.6366,-0.1999,0.0037,0,-0.037,-0.0
6.5,0,ClearNoon,0.872651,0.052923,9.772925,0.0004,-0.014664,0.0055,0.868279,0.052944,-0.1432,98.4834,-0.9212,97.3297,-1.578419,16.703,0.78,0.0052,0,-0.026,-0.0
6.55,0,ClearNoon,1.729646,-0.046747,9.799283,-0.00134,0.003075,-0.000585,1.727191,-0.0467,0.7507,97.4844,-0.9276,98.1677,-1.578443,16.7995,1.2413,0.0064,0,-0.014,-0.0
6.6,0,ClearNoon,1.900817,-0.001248,9.770249,-0.0087,-0.006764,0.006622,1.899965,-0.001211,-0.8734,100.399,-0.9341,99.0106,-1.578463,16.8907,1.1166,0.0072,0,-0.005,-0.0
6.65,0,ClearNoon,1.515587,-0.009099,9.793983,0.008771,0.003776,0.004894,1.515811,-0.009047,0.7025,100.9559,-0.9406,99.8572,-1.578494,16.9545,0.4526,0.0073,0,0.001,-0.0
6.7,0,ClearNoon,0.525654,0.051714,9.830609,-0.001828,0.002383,0.007874,0.526213,0.051756,-0.251,100.9127,-0.9471,100.7052,-1.578518,16.9487,-0.5779,0.0067,0,0.003,-0.0
6.75,0,ClearNoon,-1.491423,-0.02813,9.876871,0.001481,0.003949,9.3e-05,-1.491575,-0.028093,-1.4968,104.1848,-0.9535,101.5495,-1.578527,16.8326,-1.6942,0.0053,0,-0.001,-0.0
6.8,0,ClearNoon,-3.197838,0.04288,9.832698,0.00143,0.002249,0.005157,-3.199411,0.042938,1.4437,101.2948,-0.96,102.3858,-1.578556,16.6517,-2.5798,0.0026,0,-0.009,-0.0
6.85,0,ClearNoon,-4.088279,0.010931,9.851918,0.003961,0.003757,-0.005914,-4.091488,0.010973,-1.8903,104.893,-0.9664,103.2119,-1.578572,16.437,-2.9912,-0.0017,0,-0.019,-0.0
6.9,0,ClearNoon,-4.090231,-0.041111,9.801102,-0.000105,0.004018,0.006787,-4.09475,-0.041074,-0.8999,106.0822,-0.9727,104.0277,-1.578575,16.2479,-2.8454,-0.0071,0,-0.026,-0.0
6.95,0,ClearNoon,-2.938348,0.019616,9.802483,0.006952,0.005421,0.00026,-2.943369,0.019652,-1.9657,106.4121,-0.9789,104.8363,-1.578577,16.1359,-2.2419,-0.0123,0,-0.029,-0.0
7.0,0,ClearNoon,-1.1784,0.013665,9.812504,-0.000975,-0.002944,0.00587,-1.182983,0.013749,-0.0493,106.4722,-0.9852,105.642,-1.578626,16.1026,-1.4039,-0.0143,0,-0.027,-0.0
7.05,0,ClearNoon,-0.302374,0.053945,9.785177,0.005041,0.00252,-0.003198,-0.306109,0.054007,-1.7772,107.4028,-0.9915,106.4469,-1.578665,16.0977,-0.5728,-0.0059,0,-0.022,-0.0
7.1,0,ClearNoon,0.189576,-0.057157,9.783266,-0.002214,-0.007237,0.005294,0.186807,-0.057104,1.0538,107.439,-0.9977,107.2522,-1.578678,16.1149,0.0734,0.0238,0,-0.016,-0.0
7.15,0,ClearNoon,0.505895,-0.003047,9.809178,0.002333,-0.005316,0.005846,0.50406,-0.003,1.2759,108.9933,-1.004,108.0589,-1.578685,16.1458,0.4352,0.0863,0,-0.011,-0.0
7.2,0,ClearNoon,0.689867,-0.025047,9.823205,0.001713,0.006792,-0.003017,0.688853,-0.025055,-0.2158,108.2386,-1.0103,108.8673,-1.578641,16.1821,0.4717,0.1851,0,-0.006,0.0
7.25,0,ClearNoon,0.701697,-0.005419,9.814285,0.008104,-0.003297,0.005183,0.701336,-0.005414,-0.411,108.7036,-1.0165,109.6774,-1.578604,16.217,0.1886,0.3043,0,-0.002,-0.0
7.3,0,ClearNoon,0.4423,0.714985,9.825496,0.01101,0.005619,0.044471,0.442309,0.716542,0.2929,110.8689,-1.0245,110.4888,-1.580103,16.2256,-0.3517,0.4068,0,0.0,-0.009
7.35,0,ClearNoon,-0.710159,0.773752,9.832704,-0.004849,0.009649,0.056983,-0.710415,0.776229,-0.5731,110.9304,-1.0344,111.2983,-1.582716,16.1614,-1.0191,0.4696,0,-0.001,-0.014
7.4,0,ClearNoon,-1.926123,0.536132,9.816071,-0.00107,0.003547,0.056932,-1.927173,0.538948,0.4207,113.6634,-1.0455,112.103,-1.585403,16.0492,-1.6415,0.526,0,-0.006,-0.016
7.45,0,ClearNoon,-2.563415,0.556067,9.816074,0.005079,-0.00183,0.055403,-2.565432,0.558998,-0.0177,114.3015,-1.0578,112.9014,-1.587785,15.9181,-2.0685,0.6574,0,-0.012,-0.017
7.5,0,ClearNoon,-2.570066,0.494687,9.800019,0.001487,0.004337,0.032036,-2.572914,0.497602,-0.0174,114.8484,-1.0712,113.6933,-1.589704,15.7921,-2.2242,0.9481,0,-0.017,-0.017
7.55,0,ClearNoon,-2.251521,-0.456736,9.795563,-0.003207,0.006542,-0.028775,-2.254885,-0.455958,1.5257,114.5691,-1.0833,114.4796,-1.589143,15.6875,-2.1122,1.4135,0,-0.02,-0.005
7.6,0,ClearNoon,-1.907351,1.976953,9.809501,0.013547,-0.001734,0.138247,-1.910941,1.982597,-0.7998,115.8502,-1.1002,115.2609,-1.592489,15.5936,-1.7878,1.9302,0,-0.021,-0.033
7.65,0,ClearNoon,-1.576104,3.277506,9.778331,-0.000909,0.004887,0.212549,-1.579647,3.287664,1.497,118.127,-1.1252,116.0381,-1.601748,15.5291,-1.328,2.3068,0,-0.021,-0.059
7.7,0,ClearNoon,-0.900339,2.587757,9.811929,0.001795,0.012979,0.218586,-0.903542,2.599973,-1.1624,117.0892,-1.1565,116.8128,-1.612585,15.4942,-0.8163,2.4691,0,-0.019,-0.071
7.75,0,ClearNoon,-0.359513,2.316338,9.808334,0.014119,0.001195,0.190962,-0.362167,2.329374,0.2358,119.5645,-1.1935,117.5863,-1.623035,15.4858,-0.3313,2.5085,0,-0.016,-0.076
7.8,0,ClearNoon,0.104995,2.155048,9.824166,0.004401,0.00667,0.163383,0.103009,2.168205,-0.0236,120.1371,-1.2358,118.3597,-1.632095,15.498,0.0652,2.57,0,-0.012,-0.077
7.85,0,ClearNoon,0.413317,1.963173,9.791274,-0.005899,0.002525,0.134994,0.412021,1.976012,1.1562,121.1636,-1.2831,119.1339,-1.639411,15.5234,0.338,2.7419,0,-0.008,-0.075
7.9,0,ClearNoon,0.479824,3.287436,9.80094,0.005851,0.001138,0.208174,0.479108,3.303336,0.0186,120.4491,-1.3386,119.9088,-1.648521,15.5449,0.4803,3.0164,0,-0.004,-0.093
7.95,0,ClearNoon,0.526458,3.412727,9.798975,0.000312,0.002724,0.226765,0.526228,3.430446,-1.2498,121.4118,-1.4028,120.6842,-1.65941,15.5735,0.5066,3.3436,0,-0.001,-0.103
8.0,0,ClearNoon,0.573182,2.741949,9.78236,0.009611,-0.002158,0.188464,0.573325,2.759918,-0.9724,122.6236,-1.4739,121.4605,-1.669746,15.5998,0.4438,3.6978,0,0.001,-0.105
8.05,0,ClearNoon,0.313426,4.160808,9.798045,0.015202,0.012755,0.291991,0.313727,4.182335,1.3816,123.5187,-1.5555,122.2364,-1.682578,15.6053,0.3257,4.0597,0,0.002,-0.126
8.1,0,ClearNoon,0.173186,4.455429,9.778023,0.004763,0.008517,0.292078,0.17355,4.479104,-1.0368,124.4412,-1.6481,123.0114,-1.697548,15.6141,0.1867,4.4077,0,0.002,-0.138
8.15,0,ClearNoon,0.227019,3.741983,9.792784,0.00068,-0.003055,0.266503,0.227396,3.765992,-2.0923,124.2334,-1.75,123.7856,-1.711784,15.6195,0.0536,4.7458,0,0.002,-0.14
8.2,0,ClearNoon,-0.041479,4.963982,9.77361,0.007698,0.001975,0.354321,-0.041213,4.991221,-0.0686,124.1789,-1.8641,124.5577,-1.72787,15.6061,-0.0533,5.0688,0,0.002,-0.159
8.25,0,ClearNoon,-0.072229,5.036686,9.789933,0.001943,-0.001898,0.347793,-0.072069,5.065591,-2.2865,127.4454,-1.9906,125.3275,-1.74517,15.6009,-0.1188,5.3299,0,0.001,-0.169
8.3,0,ClearNoon,-0.135067,5.825788,9.826234,0.010826,0.000552,0.413227,-0.135057,5.858137,-0.5266,127.2426,-2.1313,126.0942,-1.764522,15.5817,-0.1366,5.4833,0,0.0,-0.189
8.35,0,ClearNoon,-0.071805,5.72614,9.757678,0.011676,0.007626,0.394573,-0.071868,5.759931,-1.776,126.8102,-2.2858,126.8576,-1.784605,15.577,-0.1139,5.533,0,-0.0,-0.197
8.4,0,ClearNoon,0.096605,4.967949,9.791486,-0.002254,0.003192,0.345331,0.096552,5.001333,0.394,127.2513,-2.4522,127.6185,-1.80274,15.5783,-0.0674,5.5303,0,-0.0,-0.195
8.45,0,ClearNoon,0.042424,5.947062,9.770785,0.010116,0.004476,0.399777,0.042345,5.982723,-0.8608,131.855,-2.633,128.3757,-1.821553,15.5677,-0.0141,5.5191,0,-0.0,-0.208
8.5,0,ClearNoon,0.087575,5.776775,9.787148,-0.003794,0.001305,0.375163,0.087533,5.813011,-1.4786,128.2892,-2.8276,129.1295,-1.840414,15.571,0.0337,5.5212,0,-0.0,-0.212
8.55,0,ClearNoon,0.274743,4.862587,9.784291,0.001872,0.010708,0.319534,0.274786,4.897705,-3.6184,130.3388,-3.0341,129.8804,-1.857081,15.579,0.0675,5.5614,0,0.0,-0.205
8.6,0,ClearNoon,0.13581,5.858883,9.746531,0.005353,0.008215,0.365817,0.13587,5.895689,-2.4182,129.5995,-3.2545,130.6274,-1.874448,15.5737,0.0856,5.6376,0,0.0,-0.215
8.65,0,ClearNoon,0.181459,5.592168,9.772515,-0.009961,0.001686,0.34016,0.181557,5.62911,-2.2908,131.2185,-3.4883,131.3703,-1.892107,15.5797,0.0939,5.6996,0,0.001,-0.216
8.7,0,ClearNoon,0.136601,6.187237,9.809359,0.012873,-0.00575,0.399274,0.13668,6.226128,-2.8288,132.4744,-3.7366,132.1084,-1.911195,15.5727,0.0999,5.6959,0,0.0,-0.227
8.75,0,ClearNoon,0.184759,5.910666,9.798977,-0.001706,0.011533,0.378763,0.184889,5.949556,-3.0723,133.5229,-3.9987,132.8417,-1.930601,15.5783,0.1055,5.6214,0,0.001,-0.227
8.8,0,ClearNoon,0.313496,4.971616,9.86373,0.001199,0.003903,0.327094,0.314333,5.008259,-3.6773,133.2078,-4.2726,133.5712,-1.947922,15.5869,0.1078,5.5144,0,0.005,-0.214
8.85,0,ClearNoon,0.169237,5.953308,9.820223,0.00171,-0.003513,0.383561,0.171315,5.991044,-4.1879,135.1264,-4.5602,134.2954,-1.965844,15.5812,0.1043,5.4044,0,0.012,-0.22
8.9,0,ClearNoon,0.166649,5.642416,9.795149,-0.004456,-0.001835,0.348123,0.170122,5.67978,-3.5023,136.5705,-4.8608,135.0143,-1.983786,15.5858,0.0954,5.3016,0,0.02,-0.218
8.95,0,ClearNoon,0.251629,4.730249,9.808229,-0.012545,-0.001439,0.2971,0.25643,4.765545,-3.8082,137.6738,-5.1723,135.7289,-1.999606,15.5924,0.0813,5.228,0,0.028,-0.206
9.0,0,ClearNoon,0.119178,5.677487,9.858847,0.009345,0.002809,0.353718,0.12453,5.713295,-5.7369,137.381,-5.4967,136.4376,-2.016175,15.5847,0.0634,5.1977,0,0.031,-0.209
9.05,0,ClearNoon,0.100431,5.488147,9.822242,-0.001195,0.003699,0.333806,0.105798,5.52351,-4.8955,137.5658,-5.8333,137.1405,-2.033106,15.5869,0.0444,5.2103,0,0.031,-0.207
9.1,0,ClearNoon,0.197493,4.548274,9.788926,-0.005178,-0.003922,0.289906,0.202785,4.581782,-4.8989,139.5004,-6.1801,137.8386,-2.048252,15.5916,0.026,5.276,0,0.031,-0.196
9.15,0,ClearNoon,0.053204,5.514319,9.773388,0.005227,0.002906,0.347831,0.058333,5.548936,-6.2137,138.8768,-6.5391,138.5303,-2.064463,15.5825,0.0111,5.3848,0,0.03,-0.202
9.2,0,ClearNoon,0.039835,5.364478,9.790058,0.002156,-0.001748,0.33365,0.044844,5.398854,-7.1484,138.7223,-6.9098,139.2156,-2.081324,15.584,0.0059,5.4826,0,0.029,-0.201
9.25,0,ClearNoon,-0.000865,5.946651,9.784534,0.001214,-0.003092,0.388651,0.003992,5.982704,-5.7577,137.5269,-7.2932,139.8935,-2.099895,15.5732,0.0144,5.5165,0,0.028,-0.211
9.3,0,ClearNoon,0.056842,5.770188,9.791373,0.004749,-0.000614,0.368067,0.06161,5.806184,-6.1328,139.9746,-7.689,140.5641,-2.119017,15.5756,0.0339,5.4836,0,0.028,-0.21
9.35,0,ClearNoon,0.226121,4.830702,9.795048,-0.007689,-0.001348,0.321511,0.230871,4.865088,-7.2839,141.4202,-8.0952,141.2288,-2.136231,15.5823,0.0554,5.4265,0,0.028,-0.201
9.4,0,ClearNoon,0.120413,5.845877,9.803329,0.002014,0.003181,0.380333,0.12509,5.881449,-7.6615,144.9912,-8.5136,141.8858,-2.154153,15.576,0.0715,5.3819,0,0.027,-0.208
9.45,0,ClearNoon,0.151177,5.577101,9.783016,-0.000772,-0.005934,0.347763,0.155815,5.612381,-9.1339,144.2198,-8.9438,142.5352,-2.172175,15.5808,0.0787,5.3657,0,0.027,-0.206
9.5,0,ClearNoon,0.253239,4.711401,9.799732,-0.000723,0.001865,0.295861,0.257883,4.74492,-9.9715,144.9853,-9.3838,143.1783,-2.188151,15.5882,0.0756,5.3974,0,0.027,-0.196
9.55,0,ClearNoon,0.115565,5.665822,9.804539,0.00349,0.006757,0.361091,0.120137,5.700454,-8.564,143.8092,-9.8353,143.8134,-2.204915,15.5817,0.0652,5.4714,0,0.027,-0.202
9.6,0,ClearNoon,0.126819,5.48568,9.773923,-0.010594,-0.002297,0.336983,0.131342,5.520024,-10.8186,145.1841,-10.2979,144.4404,-2.222043,15.5854,0.0553,5.5368,0,0.026,-0.201
9.65,0,ClearNoon,0.0698,5.988106,9.770731,0.006904,-0.004331,0.399843,0.074215,6.024039,-8.571,146.2579,-10.7722,145.0583,-2.240665,15.5762,0.0527,5.5434,0,0.026,-0.21
9.7,0,ClearNoon,0.101822,5.748169,9.79823,0.005571,-0.004918,0.375472,0.106177,5.783941,-10.7085,146.9917,-11.2578,145.6673,-2.259665,15.5794,0.0576,5.4901,0,0.025,-0.209
9.75,0,ClearNoon,0.229787,4.874349,9.797091,0.004072,0.005072,0.32878,0.234131,4.908411,-10.5234,147.7173,-11.7528,146.269,-2.276667,15.5861,0.0639,5.4207,0,0.025,-0.199
9.8,0,ClearNoon,0.101847,5.78822,9.825283,0.006234,-0.001897,0.372638,0.106116,5.823354,-9.6509,147.994,-12.2589,146.8613,-2.294319,15.5795,0.0662,5.3708,0,0.025,-0.205
9.85,0,ClearNoon,0.149783,5.59271,9.784817,-0.000717,-0.003179,0.340959,0.154006,5.627446,-11.5573,148.0092,-12.7754,147.4445,-2.312045,15.5835,0.0624,5.3531,0,0.025,-0.203
9.9,0,ClearNoon,0.24457,4.703715,9.768627,-0.002505,-0.003317,0.296445,0.248784,4.736607,-11.1297,150.4779,-13.3008,148.0202,-2.32773,15.5899,0.0525,5.3797,0,0.025,-0.192
9.95,0,ClearNoon,0.106307,5.591272,9.785363,0.0086,-0.000788,0.353514,0.110439,5.625204,-13.4817,148.2559,-13.8363,148.5863,-2.34422,15.5827,0.0408,5.4322,0,0.024,-0.198
10.0,0,ClearNoon,0.102658,5.409945,9.777002,0.012274,0.006494,0.329794,0.106727,5.443527,-14.1431,149.3463,-14.3814,149.1431,-2.361102,15.5855,0.0373,5.4424,0,0.024,-0.196
10.05,0,ClearNoon,0.081562,5.963605,9.781414,-0.003207,-0.002706,0.392775,0.085514,5.998739,-14.3441,151.3634,-14.9368,149.6892,-2.379503,15.5759,0.0516,5.3437,0,0.023,-0.205
10.1,0,ClearNoon,0.116609,5.711358,9.761652,-0.00534,0.000709,0.373232,0.120445,5.746168,-15.1166,149.8146,-15.502,150.2252,-2.398312,15.5788,0.0861,5.1295,0,0.022,-0.203
10.15,0,ClearNoon,0.226934,4.839971,9.797136,0.001824,-0.004659,0.319371,0.230617,4.872884,-15.048,152.4529,-16.0755,150.7525,-2.415156,15.5853,0.1341,4.869,0,0.022,-0.192
10.2,0,ClearNoon,0.270364,5.027414,9.83505,0.006745,0.002154,0.315366,0.274631,5.061707,-14.8293,148.9795,-16.6577,151.2708,-2.430969,15.5929,0.1849,4.6635,0,0.025,-0.2
10.25,0,ClearNoon,0.407298,4.545043,9.819813,-0.003755,0.005694,0.273766,0.412847,4.578515,-16.6173,153.2345,-17.248,151.7811,-2.4453,15.6129,0.2327,4.5974,0,0.032,-0.195
10.3,0,ClearNoon,0.561635,3.878173,9.824157,0.00112,0.002081,0.225701,0.568647,3.907924,-16.8453,151.0771,-17.8454,152.2849,-2.457366,15.637,0.2879,4.711,0,0.041,-0.174
10.35,0,ClearNoon,0.459712,5.044052,9.833574,0.010692,-0.007261,0.294227,0.468844,5.07582,-16.813,153.6825,-18.4515,152.7794,-2.470782,15.6472,0.3859,4.9676,0,0.053,-0.186
10.4,0,ClearNoon,0.499399,5.126987,10.012846,0.007297,-0.038345,0.302075,0.515214,5.162983,-16.1546,151.6369,-19.0663,153.2646,-2.485779,15.6624,0.5794,5.2675,0,0.092,-0.21
10.45,0,ClearNoon,0.695298,5.825657,11.060654,-0.043396,-0.086802,0.401329,0.744052,5.857765,-17.8227,153.5646,-19.691,153.7391,-2.503881,15.6685,0.9071,5.5247,0,0.285,-0.188
10.5,0,ClearNoon,1.154756,5.78884,10.480099,0.012651,-0.082255,0.383168,1.243647,5.818795,-17.7883,154.8516,-20.3264,154.2035,-2.523233,15.7398,1.3567,5.7297,0,0.519,-0.175
10.55,0,ClearNoon,2.287039,5.28098,10.123589,0.129888,-0.116461,0.354682,2.421131,5.338947,-19.6307,156.2621,-20.9736,154.66,-2.54116,15.8504,1.8628,5.933,0,0.783,-0.339
10.6,0,ClearNoon,2.522302,5.39806,10.39501,0.016601,-0.020173,0.369448,2.69072,5.473802,-20.297,153.6848,-21.633,155.1087,-2.559525,15.9742,2.3508,6.1413,0,0.984,-0.442
10.65,0,ClearNoon,2.281378,6.849515,10.925605,-0.00187,0.017731,0.456618,2.446698,6.919908,-21.1661,156.4208,-22.3058,155.5457,-2.580814,16.1053,2.7761,6.2747,0,0.966,-0.411
10.7,0,ClearNoon,3.292315,6.592096,9.862498,0.015427,0.017959,0.456885,3.450669,6.663942,-22.3181,157.7464,-22.9936,155.9728,-2.603436,16.2645,3.1229,6.2671,0,0.925,-0.42
10.75,0,ClearNoon,3.479355,6.163664,10.184488,0.058513,0.034093,0.400121,3.621548,6.259418,-21.9733,158.1492,-23.6961,156.3909,-2.624364,16.4369,3.3902,6.1319,0,0.831,-0.559
10.8,0,ClearNoon,3.742476,5.994714,9.407926,0.014753,0.008918,0.453127,3.875921,6.097847,-24.8599,158.0853,-24.4137,156.8004,-2.64617,16.6007,3.587,5.9039,0,0.779,-0.602
10.85,0,ClearNoon,4.014944,6.14574,9.244328,-0.002491,0.001105,0.421225,4.146973,6.246365,-24.2893,157.4068,-25.1468,157.2007,-2.667665,16.7819,3.7272,5.6102,0,0.771,-0.588
10.9,0,ClearNoon,4.066152,5.660357,9.546948,-0.010673,-0.001575,0.354348,4.198572,5.756708,-24.1252,157.2991,-25.8948,157.5929,-2.686545,16.969,3.82,5.3144,0,0.773,-0.563
10.95,0,ClearNoon,4.069577,5.23786,9.686151,-0.000814,0.001564,0.286185,4.202736,5.329849,-26.8522,157.8746,-26.6574,157.9776,-2.702317,17.1589,3.8693,5.1098,0,0.778,-0.537
11.0,0,ClearNoon,4.116344,4.9832,9.701309,-0.005475,-0.001676,0.248131,4.250224,5.07138,-26.8078,160.8088,-27.434,158.3554,-2.715556,17.3493,3.8812,5.0554,0,0.782,-0.515
11.05,0,ClearNoon,4.064916,5.390059,9.731027,-0.001578,0.004343,0.275642,4.199476,5.476275,-27.1389,157.8341,-28.2249,158.7247,-2.728664,17.5333,3.8661,5.1445,0,0.786,-0.504
11.1,0,ClearNoon,4.067536,5.314828,9.734872,-0.004036,0.00218,0.274158,4.202769,5.398677,-28.919,159.1065,-29.0299,159.086,-2.742062,17.7218,3.8357,5.3307,0,0.79,-0.49
11.15,0,ClearNoon,3.897011,5.557124,9.796321,0.002825,0.000822,0.303009,4.032905,5.639609,-28.362,159.1321,-29.8489,159.4381,-2.756783,17.903,3.7996,5.5689,0,0.794,-0.482
11.2,0,ClearNoon,3.985575,5.584138,9.745741,0.003048,0.009181,0.332815,4.12215,5.664701,-28.6851,159.976,-30.6818,159.7809,-2.772661,18.0881,3.7638,5.8309,0,0.798,-0.471
11.25,0,ClearNoon,3.91632,6.043989,9.75216,0.009348,-0.002215,0.375161,4.053579,6.123491,-31.6375,159.0078,-31.5286,160.1129,-2.790243,18.2652,3.731,6.1047,0,0.802,-0.464
11.3,0,ClearNoon,3.944791,6.2075,9.779212,-0.001679,0.011772,0.379703,4.082746,6.28543,-31.1888,161.9992,-32.3895,160.4336,-2.809126,18.4457,3.7004,6.3952,0,0.806,-0.455
11.35,0,ClearNoon,3.959045,6.222829,9.723625,0.002534,0.005389,0.383107,4.097678,6.298935,-31.5409,162.5645,-33.2641,160.7425,-2.828477,18.625,3.6691,6.7193,0,0.81,-0.445
11.4,0,ClearNoon,3.911108,6.896446,9.772346,0.012161,0.002863,0.423009,4.050376,6.9717,-32.331,162.6308,-34.1527,161.0378,-2.849103,18.7961,3.6348,7.085,0,0.813,-0.44
11.45,0,ClearNoon,3.874925,7.19657,9.78011,0.006457,0.008266,0.44451,4.014809,7.270597,-34.0932,161.939,-35.055,161.3185,-2.87076,18.9694,3.5982,7.4827,0,0.817,-0.432
11.5,0,ClearNoon,3.844119,7.633573,9.770709,0.006525,-0.002083,0.4741,3.984572,7.706873,-35.3264,164.2708,-35.971,161.5831,-2.89368,19.1349,3.5616,7.8961,0,0.82,-0.428
11.55,0,ClearNoon,3.843812,7.974994,9.769599,-0.004194,0.003727,0.476976,3.984799,8.047113,-35.8815,162.2701,-36.9004,161.8305,-2.917539,19.3023,3.5287,8.3103,0,0.823,-0.421
11.6,0,ClearNoon,3.855791,8.43452,9.775107,-0.004948,0.002764,0.507273,3.997242,8.505782,-36.9463,163.4168,-37.843,162.0593,-2.942432,19.4626,3.506,8.7083,0,0.826,-0.416
11.65,0,ClearNoon,3.831836,8.677165,9.779835,0.015035,0.005191,0.515153,3.973693,8.747116,-39.0949,163.2732,-38.7984,162.2684,-2.96803,19.6244,3.5035,9.0645,0,0.829,-0.409
11.7,0,ClearNoon,3.776766,9.348988,9.761004,0.015301,-0.000503,0.54714,3.918922,9.418328,-38.9559,163.2907,-39.7662,162.4558,-2.99495,19.7747,3.5334,9.3446,0,0.83,-0.405
11.75,0,ClearNoon,3.739285,9.554777,9.645578,0.01387,0.009528,0.550073,3.87888,9.626181,-38.964,162.7179,-40.7458,162.6208,-3.022509,19.9323,3.604,9.5201,0,0.815,-0.417
11.8,0,ClearNoon,3.803865,9.290838,9.439039,0.004064,0.020895,0.539787,3.934561,9.360963,-39.1736,163.8704,-41.7368,162.7636,-3.049618,20.0896,3.7111,9.5778,0,0.763,-0.41
11.85,0,ClearNoon,3.844634,9.664649,9.663696,0.003617,0.024173,0.535934,3.966343,9.732596,-43.373,164.7318,-42.7386,162.8832,-3.076283,20.2449,3.8306,9.5057,0,0.711,-0.397
11.9,0,ClearNoon,4.008788,9.807146,9.648268,0.010967,-4.9e-05,0.530538,4.126981,9.876389,-42.7248,163.8349,-43.751,162.9788,-3.10268,20.3984,3.908,9.286,0,0.69,-0.404
11.95,0,ClearNoon,4.070216,9.083406,9.475994,-0.000549,-0.017404,0.473098,4.193873,9.149357,-42.0695,162.7266,-44.7736,163.0521,-3.127315,20.5617,3.8461,8.9118,0,0.722,-0.385
12.0,0,ClearNoon,4.304902,9.309884,10.78071,0.007011,-0.053076,0.421142,4.458258,9.373685,-45.7929,163.681,-45.8064,163.1021,3.133408,20.7177,3.505,8.3923,0,0.896,-0.373
12.05,0,ClearNoon,4.002957,8.305623,10.198628,0.003567,-0.055738,0.338505,4.185645,8.364108,-48.0188,162.3521,-46.8482,163.1314,3.114881,20.8847,2.731,7.7456,0,1.067,-0.342
12.1,0,ClearNoon,3.76235,7.691753,10.242725,-0.009725,-0.041404,0.267542,3.972478,7.74348,-47.3896,164.2185,-47.8979,163.1412,3.100149,21.0204,1.4277,6.9915,0,1.227,-0.302
12.15,0,ClearNoon,1.392931,7.437437,11.253173,0.003624,-0.013907,0.214744,1.606005,7.485851,-48.1436,163.8751,-48.9496,163.1325,3.088888,21.0204,-0.3536,6.1454,0,1.245,-0.283
12.2,0,ClearNoon,-1.674367,6.173074,10.123735,-0.015946,0.004111,0.170928,-1.462068,6.216338,-48.4506,164.3152,-49.9956,163.1087,3.079843,20.8501,-2.3885,5.2327,0,1.24,-0.253
12.25,0,ClearNoon,-4.38042,4.722512,9.9746,-0.017943,-0.000514,0.08955,-4.172367,4.759199,-50.7214,162.4542,-51.0293,163.0739,3.073855,20.5769,-4.3739,4.3083,0,1.215,-0.214
12.3,0,ClearNoon,-5.956307,3.810058,9.939643,-0.017179,-0.003054,0.057629,-5.749918,3.840028,-51.1632,163.2466,-52.0469,163.0308,3.070388,20.2344,-6.0656,3.4346,0,1.206,-0.175
12.35,0,ClearNoon,-6.996791,3.197915,9.995558,-0.012191,-0.001816,0.026707,-6.786821,3.222316,-50.5319,161.41,-53.0458,162.9811,3.068459,19.8469,-7.3486,2.6405,0,1.226,-0.143
12.4,0,ClearNoon,-7.865385,2.470887,9.84976,-0.009213,-0.008009,0.007528,-7.650249,2.490247,-53.1651,164.1981,-54.0242,162.9268,3.067613,19.4307,-8.2227,1.9221,0,1.257,-0.113
12.45,0,ClearNoon,-8.337969,1.876616,9.914187,-0.012936,-0.005437,-0.00232,-8.119958,1.89084,-53.5083,163.0942,-54.9809,162.8694,3.06752,18.9953,-8.7541,1.274,0,1.273,-0.083
12.5,0,ClearNoon,-8.714688,0.940845,10.063431,-0.013635,0.007695,-0.046984,-8.498081,0.950023,-55.5632,162.4849,-55.9152,162.8113,3.068964,18.5502,-9.0319,0.7093,0,1.265,-0.054
12.55,0,ClearNoon,-8.771572,0.390012,9.847584,0.002603,0.003196,-0.054834,-8.557065,0.395157,-54.4813,160.8346,-56.827,162.7538,3.071611,18.1004,-9.14,0.2461,0,1.253,-0.03
12.6,0,ClearNoon,-8.705741,0.076658,9.951115,0.003831,-0.002694,-0.069682,-8.48924,0.077823,-57.2183,164.2247,-57.7165,162.6976,3.074745,17.6479,-9.1435,-0.1164,0,1.265,-0.007
12.65,0,ClearNoon,-8.765573,-0.193519,9.935388,-0.001141,-0.018328,-0.065956,-8.543276,-0.195053,-57.4657,163.681,-58.5837,162.6433,3.078038,17.1968,-9.0863,-0.3983,0,1.298,0.009
12.7,0,ClearNoon,-8.737238,-0.454654,9.854203,-0.004219,-0.011294,-0.063412,-8.508247,-0.458349,-60.5237,160.5093,-59.4286,162.5915,3.081279,16.7492,-8.995,-0.6198,0,1.338,0.022
12.75,0,ClearNoon,-8.672812,-0.615452,9.865311,0.000842,-0.011,-0.06126,-8.438147,-0.621209,-58.184,163.0308,-60.2512,162.5425,3.084337,16.3053,-8.8844,-0.7889,0,1.371,0.034
12.8,0,ClearNoon,-8.646831,-1.012362,10.064991,-0.002569,-0.000474,-0.073778,-8.411119,-1.020066,-60.2378,163.1334,-61.0518,162.4972,3.087765,15.8669,-8.7622,-0.8991,0,1.377,0.045
12.85,0,ClearNoon,-8.510483,-1.070995,9.853669,-0.00696,-0.003235,-0.066875,-8.275122,-1.079843,-61.5345,163.1805,-61.8307,162.4556,3.091495,15.4354,-8.633,-0.9441,0,1.375,0.052
12.9,0,ClearNoon,-8.274439,-0.976458,9.784189,0.008371,-0.01184,-0.066833,-8.039411,-0.985966,-60.6393,161.4231,-62.5885,162.4175,3.095026,15.0103,-8.5007,-0.9372,0,1.373,0.056
12.95,0,ClearNoon,-8.136925,-0.881407,9.978207,0.005784,-0.024142,-0.054163,-7.898079,-0.891221,-62.8013,162.2366,-63.3255,162.3825,3.098081,14.5913,-8.369,-0.9092,0,1.395,0.057
13.0,0,ClearNoon,-8.011566,-0.790841,9.925105,0.001634,-0.015911,-0.043251,-7.766748,-0.800466,-62.0167,162.6532,-64.0419,162.3503,3.100555,14.1795,-8.2417,-0.8875,0,1.43,0.056
13.05,0,ClearNoon,-7.862671,-0.672737,9.816976,-0.004102,-0.012363,-0.030943,-7.611532,-0.682032,-64.7373,163.9081,-64.7381,162.3206,3.102469,13.7751,-8.1225,-0.8757,0,1.467,0.054
13.1,0,ClearNoon,-7.78282,-1.121553,9.849255,0.000131,-0.005783,-0.063672,-7.525471,-1.131348,-65.8971,163.2597,-65.4144,162.2944,3.105104,13.3771,-8.0127,-0.8488,0,1.503,0.057
13.15,0,ClearNoon,-7.656559,-1.006303,9.923033,-0.010438,0.001448,-0.057235,-7.395969,-1.015948,-64.7244,163.3267,-66.071,162.2714,3.108141,12.9861,-7.9074,-0.779,0,1.522,0.056
13.2,0,ClearNoon,-7.510588,-0.711019,9.976996,0.006553,0.004154,-0.055952,-7.249491,-0.719813,-65.3102,163.3397,-66.7082,162.2507,3.110851,12.6031,-7.7912,-0.6677,0,1.525,0.051
13.25,0,ClearNoon,-7.328906,-0.579041,9.844821,0.001076,-0.001778,-0.034218,-7.067891,-0.586865,-65.1496,161.8421,-67.3265,162.2321,3.11307,12.2273,-7.6326,-0.5408,0,1.525,0.046
13.3,0,ClearNoon,-7.172483,-0.472371,9.797946,0.005426,0.001137,-0.018933,-6.911597,-0.479271,-68.7137,161.8295,-67.9263,162.2151,3.114793,11.8585,-7.3815,-0.4243,0,1.524,0.04
13.35,0,ClearNoon,-7.024961,-0.381052,9.849206,-0.001573,-0.004184,-0.019958,-6.762332,-0.387227,-67.3766,162.7171,-68.5079,162.1996,3.116084,11.4957,-6.9764,-0.3331,0,1.534,0.036
13.4,0,ClearNoon,-6.643251,-0.283172,9.919318,0.005975,-0.014918,-0.014718,-6.37597,-0.288603,-67.8072,163.3905,-69.0723,162.1852,3.117027,11.1648,-6.3637,-0.271,0,1.561,0.032
13.45,0,ClearNoon,-5.726796,-0.238505,9.845834,-0.000399,-0.008613,-0.009458,-5.453957,-0.243267,-68.5571,161.6933,-69.6217,162.1717,3.117703,10.8848,-5.5194,-0.2318,0,1.594,0.028
13.5,0,ClearNoon,-4.795214,-0.312093,9.8249,0.003373,-0.011124,-0.017606,-4.516513,-0.316515,-68.4535,163.3981,-70.1585,162.1593,3.118554,10.6482,-4.4557,-0.202,0,1.628,0.026
13.55,0,ClearNoon,-3.690842,-0.286874,9.802778,-0.009532,-0.011938,-0.008646,-3.406094,-0.290796,-67.938,162.6748,-70.6854,162.1478,3.119372,10.476,-3.219,-0.1699,0,1.663,0.023
13.6,0,ClearNoon,-2.343771,-0.130307,9.811074,-0.005271,-0.008206,-0.010584,-2.053046,-0.133649,-71.0711,163.2507,-71.2057,162.1367,3.120236,10.371,-1.8934,-0.134,0,1.698,0.02
13.65,0,ClearNoon,-0.878109,-0.137882,10.00172,0.005023,-0.00281,-0.013487,-0.584155,-0.140728,-72.19,163.3547,-71.7231,162.126,3.12083,10.3505,-0.5981,-0.1002,0,1.717,0.017
13.7,0,ClearNoon,0.449108,-0.107555,9.890227,-0.00035,-0.012892,-0.012236,0.745205,-0.109962,-73.0355,161.9276,-72.2409,162.1155,3.121292,10.3763,0.5288,-0.0734,0,1.73,0.014
13.75,0,ClearNoon,1.806342,-0.094468,9.839354,-0.000176,-0.004218,0.003022,2.104478,-0.096525,-72.1309,163.2969,-72.7624,162.1051,3.121655,10.4799,1.3573,-0.0553,0,1.742,0.012
13.8,0,ClearNoon,2.418043,-0.048734,9.806008,0.002186,0.003638,-0.004183,2.718053,-0.050508,-71.2836,162.8124,-73.2893,162.0947,3.121949,10.5852,1.7984,-0.0453,0,1.752,0.01
13.85,0,ClearNoon,2.708507,-0.06446,9.797653,-0.002498,-0.000173,-0.013827,3.010392,-0.066005,-73.3069,162.2677,-73.8221,162.0844,3.122172,10.7098,1.8329,-0.0418,0,1.763,0.009
13.9,0,ClearNoon,2.191674,-0.056471,9.947365,-2.4e-05,-0.010826,0.002153,2.49801,-0.057841,-73.4576,162.0116,-74.3597,162.074,3.122357,10.7804,1.5224,-0.0427,0,1.789,0.008
13.95,0,ClearNoon,1.55766,-0.047894,9.933314,0.005984,-0.012477,-0.004844,1.869211,-0.04912,-74.2878,162.8228,-74.9003,162.0637,3.122532,10.8347,0.9903,-0.0449,0,1.82,0.007
14.0,0,ClearNoon,0.672758,-0.086014,9.832285,0.004171,-0.006528,-0.008628,0.9892,-0.087153,-73.9199,162.354,-75.4419,162.0536,3.122768,10.8288,0.3841,-0.0446,0,1.849,0.007
14.05,0,ClearNoon,0.088502,-0.040147,9.803288,0.000127,-0.009839,0.002303,0.409475,-0.04115,-75.1406,163.795,-75.9828,162.0436,3.123016,10.8156,-0.1634,-0.0399,0,1.875,0.006
14.1,0,ClearNoon,-0.406794,-0.025879,9.798399,0.004634,-0.006684,0.00979,-0.08158,-0.026745,-73.1177,161.3895,-76.5219,162.0337,3.123235,10.7624,-0.56,-0.0316,0,1.9,0.005
14.15,0,ClearNoon,-0.59578,-0.052594,9.885053,-0.001057,-0.005313,-0.00611,-0.267929,-0.053351,-74.5439,161.4451,-77.0586,162.024,3.123424,10.7251,-0.7638,-0.023,0,1.915,0.004
14.2,0,ClearNoon,-0.703303,0.027501,9.979542,0.004213,0.005511,0.004809,-0.375514,0.026887,-76.6044,162.53,-77.5928,162.0143,3.123516,10.6696,-0.7797,-0.0173,0,1.915,0.004
14.25,0,ClearNoon,-0.379174,0.001068,9.838646,0.006289,0.004811,0.000889,-0.051917,0.000536,-76.3815,162.9263,-78.1252,162.0046,3.123548,10.6485,-0.6468,-0.0162,0,1.912,0.003
14.3,0,ClearNoon,-0.234938,-0.051958,9.813466,0.005003,0.001221,0.00466,0.091864,-0.052488,-77.3958,160.841,-78.6562,161.9951,3.123631,10.6188,-0.4235,-0.0179,0,1.909,0.003
14.35,0,ClearNoon,0.214323,-0.033301,9.786842,0.004189,-0.00891,0.000286,0.540934,-0.033785,-77.0226,162.873,-79.187,161.9857,3.123743,10.6274,-0.1712,-0.02,0,1.908,0.003
14.4,0,ClearNoon,0.436926,-0.014144,9.847222,-0.003856,-0.002018,0.0011,0.765316,-0.014543,-77.8738,163.1662,-79.7179,161.9762,3.123798,10.6239,0.0573,-0.0217,0,1.918,0.002
14.45,0,ClearNoon,0.697434,-0.005031,9.928048,-0.015929,-0.010578,0.00889,1.030258,-0.005433,-79.4425,163.4571,-80.2497,161.9668,3.123887,10.6524,0.2253,-0.0224,0,1.944,0.002
14.5,0,ClearNoon,0.661547,0.003027,9.848261,0.002328,-0.014815,-0.003558,0.99936,0.002669,-80.2851,161.75,-80.7824,161.9575,3.124002,10.6609,0.3148,-0.021,0,1.973,0.002
14.55,0,ClearNoon,0.762229,-0.011409,9.801294,0.003125,-0.007382,-0.005458,1.105094,-0.011722,-79.3968,162.4602,-81.3162,161.9482,3.124117,10.6914,0.3256,-0.0167,0,2.003,0.002
14.6,0,ClearNoon,0.657511,-0.029957,9.798785,0.001824,-0.008857,-0.000714,1.005275,-0.030216,-81.748,163.5891,-81.8507,161.9389,3.124215,10.6944,0.2722,-0.0105,0,2.032,0.002
14.65,0,ClearNoon,0.603145,-0.039009,9.794432,0.000728,-0.003946,0.005392,0.955544,-0.039228,-82.8042,162.8955,-82.3858,161.9297,3.124302,10.7135,0.1784,-0.0042,0,2.059,0.001
14.7,0,ClearNoon,0.344091,-0.009346,9.95139,0.001741,0.002555,0.007218,0.697959,-0.009464,-83.9563,162.4696,-82.9208,161.9204,3.124289,10.7032,0.0705,0.0003,0,2.067,0.001
14.75,0,ClearNoon,0.303162,-0.023045,9.891001,0.001492,0.004126,0.001158,0.656885,-0.023198,-83.4086,161.7126,-83.4558,161.9111,3.124307,10.7104,-0.028,0.0023,0,2.066,0.001
14.8,0,ClearNoon,0.230116,-0.008967,9.844509,-0.001585,0.005517,-0.00461,0.583338,-0.0091,-81.1419,162.4904,-83.9903,161.9019,3.124334,10.6917,-0.1008,0.0023,0,2.063,0.001
14.85,0,ClearNoon,0.215809,0.052871,9.783785,-0.001043,-0.001687,0.00515,0.568572,0.052794,-83.509,162.1148,-84.5245,161.8926,3.124299,10.6947,-0.1401,-0.0002,0,2.061,0.0
14.9,0,ClearNoon,0.112427,0.010329,9.810995,0.005242,-0.001612,-0.003222,0.465088,0.010259,-83.2675,160.5747,-85.0582,161.8833,3.124233,10.6746,-0.1458,-0.0051,0,2.06,0.0
14.95,0,ClearNoon,0.248727,-0.047521,9.918166,0.005863,-0.005117,-3.8e-05,0.604547,-0.047661,-84.4212,164.4323,-85.5918,161.8741,3.124242,10.6795,-0.1233,-0.0096,0,2.079,0.001
15.0,0,ClearNoon,0.214608,-0.029678,9.909328,-0.000248,-0.008791,-0.004086,0.57492,-0.029827,-84.2728,163.1863,-86.125,161.8649,3.12432,10.6639,-0.0824,-0.0103,0,2.105,0.001
15.05,0,ClearNoon,0.413545,-0.027435,9.854504,-0.001638,0.000761,-0.002347,0.77868,-0.027556,-84.1418,162.6272,-86.6583,161.8558,3.124403,10.6747,-0.0343,-0.0065,0,2.133,0.001
15.1,0,ClearNoon,0.347324,-0.007771,9.787087,-0.000102,-0.008943,-0.001191,0.717271,-0.007868,-85.6116,161.8875,-87.1915,161.8467,3.124483,10.6651,0.0101,-0.0012,0,2.161,0.001
15.15,0,ClearNoon,0.482956,0.036819,9.790759,0.00216,-0.016312,0.000611,0.857693,0.036813,-88.397,161.3085,-87.7249,161.8375,3.124464,10.68,0.0426,0.0018,0,2.189,0.0
15.2,0,ClearNoon,0.389897,0.067855,9.824353,-0.000333,0.004259,0.001035,0.768045,0.067876,-86.8013,161.7131,-88.2584,161.8282,3.124366,10.6725,0.0594,0.0005,0,2.209,-0.0
15.25,0,ClearNoon,0.44682,-0.060149,9.953782,-0.005625,0.003536,0.007522,0.825488,-0.060233,-86.396,162.2385,-88.7921,161.8191,3.124373,10.6869,0.0605,-0.0022,0,2.212,0.0
15.3,0,ClearNoon,0.419632,0.00187,9.851378,0.012935,0.005496,-0.004186,0.798027,0.001782,-89.0573,163.2997,-89.3256,161.81,3.124441,10.6781,0.0488,-0.0028,0,2.211,0.001
15.35,0,ClearNoon,0.47842,0.021757,9.814807,0.008824,0.004979,0.010299,0.856462,0.021716,-89.4467,162.3505,-89.8595,161.8008,3.124473,10.6911,0.0285,-0.001,0,2.209,0.0
15.4,0,ClearNoon,0.293803,0.017104,9.790049,0.004027,-0.002771,0.004244,0.671492,0.017076,-88.9014,163.9498,-90.3932,161.7917,3.124482,10.68,0.0044,0.0006,0,2.206,0.0
15.45,0,ClearNoon,0.455283,0.035266,9.831788,0.003298,-0.010723,0.003448,0.834294,0.035276,-90.7092,162.486,-90.927,161.7825,3.124443,10.6901,-0.0185,0.0001,0,2.214,-0.0
15.5,0,ClearNoon,0.343273,0.005458,9.907896,0.000936,-0.006621,0.000941,0.726298,0.005439,-89.4146,162.3517,-91.4608,161.7733,3.124416,10.6759,-0.0352,-0.0022,0,2.238,0.0
15.55,0,ClearNoon,0.42602,-0.016575,9.872549,0.007998,-0.009584,-0.001588,0.813772,-0.01663,-90.438,162.5037,-91.9946,161.7642,3.124451,10.6854,-0.0423,-0.0044,0,2.265,0.0
15.6,0,ClearNoon,0.265684,0.059929,9.79711,0.000373,0.003212,0.003281,0.658216,0.059896,-90.3646,162.0526,-92.5281,161.7551,3.124478,10.6723,-0.0377,-0.0056,0,2.293,0.0
15.65,0,ClearNoon,0.40866,-0.015651,9.804567,0.000377,-0.007831,0.006804,0.805961,-0.015666,-91.6918,162.9515,-93.0618,161.7459,3.124483,10.683,-0.02,-0.0062,0,2.321,0.0
15.7,0,ClearNoon,0.393988,0.025924,9.815118,0.009157,-0.009684,-0.007944,0.795887,0.025907,-94.5328,163.454,-93.5953,161.7368,3.124487,10.6713,0.0128,-0.0062,0,2.348,0.0
15.75,0,ClearNoon,0.390002,-0.011873,9.942949,-0.005611,-0.00117,0.002491,0.793576,-0.011921,-93.6389,162.4593,-94.1288,161.7277,3.124546,10.6822,0.0615,-0.0045,0,2.358,0.0
15.8,0,ClearNoon,0.34875,0.016275,9.915074,0.004138,7e-05,-0.00798,0.752288,0.016275,-92.1409,162.2696,-94.662,161.7187,3.124588,10.6713,0.1216,-0.0009,0,2.358,0.0
15.85,0,ClearNoon,0.462096,-0.00857,9.836843,0.001782,-0.000412,-0.005292,0.865304,-0.008549,-91.5971,162.8447,-95.1954,161.7096,3.124599,10.6836,0.1765,0.0031,0,2.356,-0.0
15.9,0,ClearNoon,0.397312,0.015818,9.808496,0.002138,0.006749,0.002743,0.800152,0.015849,-93.622,159.4839,-95.7287,161.7006,3.124604,10.6731,0.1895,0.0061,0,2.353,-0.0
15.95,0,ClearNoon,0.413766,0.001031,9.804392,0.007254,-0.018742,0.010573,0.816549,0.001083,-97.1802,161.4547,-96.2622,161.6914,3.124565,10.6856,0.0991,0.0067,0,2.353,-0.0
16.0,0,ClearNoon,0.427557,0.019212,9.940444,-0.00896,-0.007483,0.003037,0.833343,0.019269,-95.0667,162.863,-96.7956,161.6823,3.124496,10.6727,-0.1779,0.0053,0,2.371,-0.0
16.05,0,ClearNoon,0.439237,-0.005401,9.916051,-0.011225,-0.013538,0.007466,0.849534,-0.005391,-95.3586,160.6489,-97.3292,161.6731,3.124462,10.6838,-0.7244,0.0035,0,2.397,-0.0
16.1,0,ClearNoon,0.153365,-0.057536,9.868947,-0.009461,-0.008567,0.004071,0.568296,-0.057584,-95.6749,164.1934,-97.8622,161.6641,3.124521,10.6411,-1.5763,0.0032,0,2.424,0.0
16.15,0,ClearNoon,-1.327067,0.057421,9.849441,-0.009406,-0.001022,0.002222,-0.908192,0.057447,-97.2909,163.3367,-98.3907,161.655,3.124507,10.5256,-2.672,0.0034,0,2.447,-0.0
16.2,0,ClearNoon,-3.267064,0.029257,9.82594,-0.006459,-0.007067,0.005001,-2.845139,0.029298,-97.43,161.8628,-98.91,161.6461,3.124423,10.2957,-3.8523,0.002,0,2.465,-0.0
16.25,0,ClearNoon,-4.692205,-0.029598,9.859138,0.001857,0.00624,0.000301,-4.268628,-0.029641,-97.1948,161.956,-99.4166,161.6374,3.124419,10.034,-4.9278,-0.001,0,2.475,0.0
16.3,0,ClearNoon,-5.656432,-0.024791,9.990512,0.001785,-0.00104,-0.003237,-5.23422,-0.024832,-99.656,162.8237,-99.9081,161.629,3.124435,9.7069,-5.7574,-0.0036,0,2.467,0.0
16.35,0,ClearNoon,-5.864299,-0.006349,9.845317,-0.007985,0.002464,0.001684,-5.444023,-0.006377,-99.1864,163.1341,-100.3838,161.6208,3.124437,9.4068,-6.2812,-0.0053,0,2.455,0.0
16.4,0,ClearNoon,-6.180967,0.03753,9.812769,0.004833,0.01152,-0.007011,-5.762554,0.037513,-98.7256,162.1174,-100.843,161.6129,3.124437,9.0547,-6.5075,-0.0062,0,2.445,0.0
16.45,0,ClearNoon,-6.105746,-0.014046,9.790451,0.006153,-0.003409,0.00111,-5.688751,-0.014087,-101.8929,161.1934,-101.286,161.6054,3.124473,8.7487,-6.4838,-0.0055,0,2.436,0.0
16.5,0,ClearNoon,-6.290066,0.012134,9.77504,0.01009,-0.001392,-0.005951,-5.874249,0.012101,-101.0978,160.8982,-101.7123,161.5981,3.12453,8.3935,-6.2829,-0.003,0,2.429,0.0
16.55,0,ClearNoon,-6.014757,0.006089,9.862491,-0.00859,0.002884,-0.006479,-5.59807,0.006094,-100.6401,161.8449,-102.1225,161.5912,3.124555,8.0927,-6.0103,0.0005,0,2.434,-0.0
16.6,0,ClearNoon,-6.176739,0.008459,9.846284,0.005377,-0.005271,0.004899,-5.757459,0.008485,-101.2055,162.4802,-102.5162,161.5845,3.12456,7.7415,-5.8299,0.0034,0,2.45,-0.0
16.65,0,ClearNoon,-5.831002,-0.02392,9.794539,-0.001513,0.000269,0.002832,-5.408571,-0.023893,-103.8611,161.6061,-102.8943,161.578,3.124562,7.454,-5.9891,0.0044,0,2.468,-0.0
16.7,0,ClearNoon,-5.952097,0.052697,9.81873,0.001791,-0.007696,0.005787,-5.526606,0.052744,-100.8727,162.511,-103.2565,161.5718,3.124516,7.113,-6.8139,0.0032,0,2.486,-0.0
16.75,0,ClearNoon,-5.573722,-0.038138,9.788214,-0.00384,-0.005741,-0.000854,-5.145105,-0.038122,-104.0413,162.1118,-103.6037,161.5658,3.124489,6.8399,-8.6328,0.0005,0,2.504,-0.0
16.8,0,ClearNoon,-5.694271,0.01063,9.806855,-0.001734,0.001337,0.002517,-5.262744,0.010625,-101.0524,161.0262,-103.9355,161.5602,3.124485,6.5104,-11.5801,-0.0019,0,2.521,0.0
16.85,0,ClearNoon,-6.306171,-0.031866,9.813028,0.000489,0.002331,-0.002777,-5.872447,-0.03188,-103.3371,163.3844,-104.2505,161.5548,3.124509,6.0021,-15.2963,-0.0027,0,2.534,0.0
16.9,0,ClearNoon,-22.194025,-0.002738,9.854239,0.003337,0.008511,0.008775,-21.765175,-0.002738,-102.4676,162.3808,-104.509,161.5504,3.124527,4.6405,-18.7871,-0.0021,0,2.506,0.0
16.95,0,ClearNoon,-26.808418,0.001267,9.710523,0.003097,0.012697,-0.003381,-26.385818,0.001277,-105.1209,162.9785,-104.6993,161.5472,3.124534,3.2705,-20.7818,-0.0009,0,2.469,-0.0
17.0,0,ClearNoon,-26.925341,0.010236,9.786907,-0.003415,0.016708,-0.000394,-26.509253,0.010246,-104.1274,161.8825,-104.8214,161.5451,3.124537,1.9033,-20.38,0.0,0,2.431,-0.0
17.05,0,ClearNoon,-26.738144,0.009379,9.72952,-0.004058,0.010417,0.000755,-26.327666,0.009389,-103.7696,161.0992,-104.8756,161.5442,3.124537,0.5532,-17.4733,0.0005,0,2.398,-0.0
17.1,0,ClearNoon,-19.369829,-0.036133,9.692946,0.000537,-0.00638,0.002099,-18.960329,-0.036086,-105.5983,162.3382,-104.8805,161.5441,3.124541,0.0011,-12.8355,0.0006,0,2.392,-0.0
17.15,0,ClearNoon,-1.430156,0.0236,9.718032,0.008323,-0.01085,-0.005938,-1.014319,0.023647,-105.1587,162.7397,-104.8808,161.5441,3.12454,0.0014,-7.8306,0.0004,0,2.429,-0.0
17.2,0,ClearNoon,0.468838,0.01278,9.788651,0.002996,-0.017916,-0.00041,0.892318,0.012816,-103.7395,162.3032,-104.8811,161.5441,3.124539,0.0013,-3.7019,0.0003,0,2.474,-0.0
17.25,0,ClearNoon,0.385783,-0.002015,9.796166,0.00043,-0.014097,0.006929,0.815998,-0.001984,-102.5809,162.8778,-104.8814,161.5441,3.124539,0.0011,-0.9983,0.0001,0,2.514,-0.0
17.3,0,ClearNoon,0.384519,-0.024594,9.829691,0.00257,-0.00837,0.004217,0.820113,-0.024573,-105.369,162.5946,-104.8816,161.5441,3.124539,0.0009,0.3876,0.0,0,2.545,-0.0
17.35,0,ClearNoon,0.421793,0.04119,9.820312,-0.007396,-0.003051,0.005562,0.861506,0.041211,-102.4843,160.9093,-104.8818,161.5441,3.124538,0.0006,0.8555,-0.0,0,2.569,-0.0
17.4,0,ClearNoon,0.435398,-0.007619,9.797644,-0.007531,-0.008064,0.002184,0.878208,-0.007604,-103.5577,161.0109,-104.8819,161.5441,3.124537,0.0005,0.8181,-0.0,0,2.587,-0.0
17.45,0,ClearNoon,0.450038,0.019679,9.773339,0.003047,0.00159,-0.000911,0.895161,0.019695,-104.5713,161.9348,-104.882,161.5441,3.124537,0.0004,0.5822,-0.0,0,2.601,-0.0
17.5,0,ClearNoon,0.419377,0.001045,9.796188,0.006268,0.00047,0.001446,0.865705,0.001055,-105.3934,162.8543,-104.8821,161.5441,3.124537,0.0002,0.3278,-0.0,0,2.608,-0.0
17.55,0,ClearNoon,0.440668,-0.013998,9.80838,-0.001614,0.00556,-0.001474,0.887884,-0.013993,-104.5535,161.3004,-104.8821,161.5441,3.124535,0.0002,0.1345,-0.0,0,2.613,-0.0
17.6,0,ClearNoon,0.523066,-0.02315,9.795976,-0.002366,7.1e-05,0.004603,0.971266,-0.023139,-104.0699,164.327,-104.8822,161.5441,3.124535,0.0002,0.0184,0.0,0,2.619,-0.0
